{
  "type": "FeatureCollection",
  "features": [
    {
      "type": "Feature",
      "geometry": {
        "type": "Point",
        "coordinates": [
          1.4108647145523792,
          56.19520520330721
        ]
      },
      "properties": {
        "name": "Messersee",
        "waterbody_type": "Lake",
        "inkscape_coordinates": [
          509.26747,
          137.859168
        ]
      }
    },
    {
      "type": "Feature",
      "geometry": {
        "type": "Point",
        "coordinates": [
          2.4339738458822042,
          56.27454897668272
        ]
      },
      "properties": {
        "name": "Öbelsee",
        "waterbody_type": "Lake",
        "inkscape_coordinates": [
          567.72111,
          133.333839
        ]
      }
    },
    {
      "type": "Feature",
      "geometry": {
        "type": "Point",
        "coordinates": [
          3.5554058223710614,
          56.240251101039966
        ]
      },
      "properties": {
        "name": "Barmsee",
        "waterbody_type": "Lake",
        "inkscape_coordinates": [
          631.79051,
          135.301582
        ]
      }
    },
    {
      "type": "Feature",
      "geometry": {
        "type": "Point",
        "coordinates": [
          3.5880347968196125,
          56.70281913354883
        ]
      },
      "properties": {
        "name": "Kaltsee",
        "waterbody_type": "Lake",
        "inkscape_coordinates": [
          633.6613600000001,
          108.87532700000001
        ]
      }
    },
    {
      "type": "Feature",
      "geometry": {
        "type": "Point",
        "coordinates": [
          3.1298677666173242,
          55.57541316036544
        ]
      },
      "properties": {
        "name": "Wolfsee",
        "waterbody_type": "Lake",
        "inkscape_coordinates": [
          607.46897,
          173.28060000000002
        ]
      }
    },
    {
      "type": "Feature",
      "geometry": {
        "type": "Point",
        "coordinates": [
          -1.4190578530651896,
          49.29382716528756
        ]
      },
      "properties": {
        "name": "Bögensee",
        "waterbody_type": "Lake",
        "inkscape_coordinates": [
          347.48799,
          532.11371
        ]
      }
    },
    {
      "type": "Feature",
      "geometry": {
        "type": "Point",
        "coordinates": [
          -0.5655379963925551,
          48.928987329888876
        ]
      },
      "properties": {
        "name": "Frugelsee",
        "waterbody_type": "Lake",
        "inkscape_coordinates": [
          396.24620000000004,
          552.9633200000001
        ]
      }
    },
    {
      "type": "Feature",
      "geometry": {
        "type": "Point",
        "coordinates": [
          -0.6686061285532308,
          48.69584272992989
        ]
      },
      "properties": {
        "name": "Gargrimvarn",
        "waterbody_type": "Lake",
        "inkscape_coordinates": [
          390.35432000000003,
          566.2821
        ]
      }
    },
    {
      "type": "Feature",
      "geometry": {
        "type": "Point",
        "coordinates": [
          0.6118658568002067,
          46.8236567282876
        ]
      },
      "properties": {
        "name": "Glanzsee",
        "waterbody_type": "Lake",
        "inkscape_coordinates": [
          463.48347,
          673.24951
        ]
      }
    },
    {
      "type": "Feature",
      "geometry": {
        "type": "Point",
        "coordinates": [
          6.304549960578025,
          49.79196308590856
        ]
      },
      "properties": {
        "name": "Svarsee",
        "waterbody_type": "Lake",
        "inkscape_coordinates": [
          788.7620300000001,
          503.71243000000004
        ]
      }
    },
    {
      "type": "Feature",
      "geometry": {
        "type": "Point",
        "coordinates": [
          7.324488056747909,
          49.24560280193515
        ]
      },
      "properties": {
        "name": "Helsee",
        "waterbody_type": "Lake",
        "inkscape_coordinates": [
          847.0254600000001,
          534.93353
        ]
      }
    },
    {
      "type": "Feature",
      "geometry": {
        "type": "Point",
        "coordinates": [
          0.6254418529498542,
          54.23677862859493
        ]
      },
      "properties": {
        "name": "Delbsee",
        "waterbody_type": "Lake",
        "inkscape_coordinates": [
          464.36622,
          249.738197
        ]
      }
    },
    {
      "type": "Feature",
      "geometry": {
        "type": "Point",
        "coordinates": [
          1.3005161786498496,
          53.85594570252445
        ]
      },
      "properties": {
        "name": "Untzensee",
        "waterbody_type": "Lake",
        "inkscape_coordinates": [
          502.92921,
          271.50017
        ]
      }
    },
    {
      "type": "Feature",
      "geometry": {
        "type": "Point",
        "coordinates": [
          1.8330221894621586,
          54.121733010653394
        ]
      },
      "properties": {
        "name": "Ulfensee",
        "waterbody_type": "Lake",
        "inkscape_coordinates": [
          533.3563,
          256.319694
        ]
      }
    },
    {
      "type": "Feature",
      "geometry": {
        "type": "Point",
        "coordinates": [
          -1.5222450892186856,
          52.182007795965
        ]
      },
      "properties": {
        "name": "Myrkelmere",
        "waterbody_type": "Lake",
        "inkscape_coordinates": [
          341.63441,
          367.11128
        ]
      }
    },
    {
      "type": "Feature",
      "geometry": {
        "type": "Point",
        "coordinates": [
          -1.2391144401955723,
          52.68636248748158
        ]
      },
      "properties": {
        "name": "Glimmersee",
        "waterbody_type": "Lake",
        "inkscape_coordinates": [
          357.81758,
          338.29961000000003
        ]
      }
    },
    {
      "type": "Feature",
      "geometry": {
        "type": "Point",
        "coordinates": [
          -1.108881569054204,
          52.43012734520771
        ]
      },
      "properties": {
        "name": "Spiegelsee",
        "waterbody_type": "Lake",
        "inkscape_coordinates": [
          365.25437,
          352.93928000000005
        ]
      }
    },
    {
      "type": "Feature",
      "geometry": {
        "type": "Point",
        "coordinates": [
          -1.0113758721506798,
          52.096111966007705
        ]
      },
      "properties": {
        "name": "Dornsee",
        "waterbody_type": "Lake",
        "inkscape_coordinates": [
          370.82026,
          372.02229
        ]
      }
    },
    {
      "type": "Feature",
      "geometry": {
        "type": "Point",
        "coordinates": [
          -1.3781465567461417,
          52.128812200223024
        ]
      },
      "properties": {
        "name": "Brachsee",
        "waterbody_type": "Lake",
        "inkscape_coordinates": [
          349.86631,
          370.15141000000006
        ]
      }
    },
    {
      "type": "Feature",
      "geometry": {
        "type": "Point",
        "coordinates": [
          -1.3831081617243157,
          52.32447996847121
        ]
      },
      "properties": {
        "name": "Riedsee",
        "waterbody_type": "Lake",
        "inkscape_coordinates": [
          349.58567,
          358.97288000000003
        ]
      }
    },
    {
      "type": "Feature",
      "geometry": {
        "type": "Point",
        "coordinates": [
          -0.7650580152664341,
          52.491574023047015
        ]
      },
      "properties": {
        "name": "Nomensee",
        "waterbody_type": "Lake",
        "inkscape_coordinates": [
          384.89866,
          349.43138
        ]
      }
    },
    {
      "type": "Feature",
      "geometry": {
        "type": "Point",
        "coordinates": [
          -0.7716745084475862,
          52.75764998361845
        ]
      },
      "properties": {
        "name": "Ehrlersee",
        "waterbody_type": "Lake",
        "inkscape_coordinates": [
          384.52449,
          334.23042
        ]
      }
    },
    {
      "type": "Feature",
      "geometry": {
        "type": "Point",
        "coordinates": [
          0.328444161291336,
          53.561142276430054
        ]
      },
      "properties": {
        "name": "Wyrmsee",
        "waterbody_type": "Lake",
        "inkscape_coordinates": [
          447.38832,
          288.33508
        ]
      }
    },
    {
      "type": "Feature",
      "geometry": {
        "type": "Point",
        "coordinates": [
          -2.450973133137145,
          50.55117212213001
        ]
      },
      "properties": {
        "name": "Maissee",
        "waterbody_type": "Lake",
        "inkscape_coordinates": [
          288.550551,
          460.27399
        ]
      }
    },
    {
      "type": "Feature",
      "geometry": {
        "type": "Point",
        "coordinates": [
          -0.4242255972970552,
          54.9550309548041
        ]
      },
      "properties": {
        "name": "SCHADENSUMPF",
        "waterbody_type": "Large Marsh",
        "inkscape_coordinates": [
          404.40677,
          208.69669
        ]
      }
    },
    {
      "type": "Feature",
      "geometry": {
        "type": "Point",
        "coordinates": [
          -2.603051493816415,
          53.45854666992736
        ]
      },
      "properties": {
        "name": "CURSED MARSHES",
        "waterbody_type": "Large Marsh",
        "inkscape_coordinates": [
          279.90399,
          294.17465
        ]
      }
    },
    {
      "type": "Feature",
      "geometry": {
        "type": "Point",
        "coordinates": [
          -1.2592203310538457,
          51.98701798155774
        ]
      },
      "properties": {
        "name": "MIDDEN MARSHES",
        "waterbody_type": "Large Marsh",
        "inkscape_coordinates": [
          356.65878,
          378.25299
        ]
      }
    },
    {
      "type": "Feature",
      "geometry": {
        "type": "Point",
        "coordinates": [
          6.31088232205163,
          48.201577216575814
        ]
      },
      "properties": {
        "name": "BYLORHOF MARSH",
        "waterbody_type": "Large Marsh",
        "inkscape_coordinates": [
          789.10083,
          594.57117
        ]
      }
    },
    {
      "type": "Feature",
      "geometry": {
        "type": "Point",
        "coordinates": [
          5.594070742559912,
          57.208544832448275
        ]
      },
      "properties": {
        "name": "CZARNEBŁOTA (The Blight)",
        "waterbody_type": "Large Marsh",
        "inkscape_coordinates": [
          748.27795,
          79.998093
        ]
      }
    },
    {
      "type": "Feature",
      "geometry": {
        "type": "Point",
        "coordinates": [
          -1.1161119406921838,
          52.586327266688514
        ]
      },
      "properties": {
        "name": "MIRROR MOORS",
        "waterbody_type": "Small Marsh",
        "inkscape_coordinates": [
          364.84354,
          344.01553
        ]
      }
    },
    {
      "type": "Feature",
      "geometry": {
        "type": "Point",
        "coordinates": [
          7.3272815335090735,
          49.27553106489223
        ]
      },
      "properties": {
        "name": "GRIMMOOR",
        "waterbody_type": "Small Marsh",
        "inkscape_coordinates": [
          847.18549,
          533.22375
        ]
      }
    },
    {
      "type": "Feature",
      "geometry": {
        "type": "Point",
        "coordinates": [
          7.94533709546186,
          49.3194874692571
        ]
      },
      "properties": {
        "name": "DUNKELMOOR",
        "waterbody_type": "Small Marsh",
        "inkscape_coordinates": [
          882.49701,
          530.7171
        ]
      }
    },
    {
      "type": "Feature",
      "geometry": {
        "type": "Point",
        "coordinates": [
          6.3031459084345185,
          49.737751250456085
        ]
      },
      "properties": {
        "name": "MORRSFENN",
        "waterbody_type": "Small Marsh",
        "inkscape_coordinates": [
          788.68103,
          506.80954
        ]
      }
    },
    {
      "type": "Feature",
      "geometry": {
        "type": "Point",
        "coordinates": [
          6.651373446755133,
          50.43520393675336
        ]
      },
      "properties": {
        "name": "TOTENSÜMPFE",
        "waterbody_type": "Small Marsh",
        "inkscape_coordinates": [
          808.58612,
          466.96667
        ]
      }
    },
    {
      "type": "Feature",
      "geometry": {
        "type": "Point",
        "coordinates": [
          7.689000500149542,
          50.29095102322884
        ]
      },
      "properties": {
        "name": "HEL FENN",
        "waterbody_type": "Small Marsh",
        "inkscape_coordinates": [
          867.86597,
          475.21552
        ]
      }
    },
    {
      "type": "Feature",
      "geometry": {
        "type": "Point",
        "coordinates": [
          6.390050620894129,
          47.399495654677025
        ]
      },
      "properties": {
        "name": "ALBENMOOR",
        "waterbody_type": "Small Marsh",
        "inkscape_coordinates": [
          793.6123,
          640.39465
        ]
      }
    },
    {
      "type": "Feature",
      "geometry": {
        "type": "Point",
        "coordinates": [
          -2.3919891030897436,
          51.83075270024192
        ]
      },
      "properties": {
        "name": "GROOTSCHER MARSH",
        "waterbody_type": "Small Marsh",
        "inkscape_coordinates": [
          291.93893,
          387.17203
        ]
      }
    },
    {
      "type": "Feature",
      "geometry": {
        "type": "Point",
        "coordinates": [
          -2.9469546087063296,
          51.477822504199686
        ]
      },
      "properties": {
        "name": "UHLAND BOGS",
        "waterbody_type": "Small Marsh",
        "inkscape_coordinates": [
          260.22742,
          407.33081
        ]
      }
    },
    {
      "type": "Feature",
      "geometry": {
        "type": "Point",
        "coordinates": [
          -0.615499370368263,
          51.65236135976689
        ]
      },
      "properties": {
        "name": "THE FURDIENST",
        "waterbody_type": "Small Marsh",
        "inkscape_coordinates": [
          393.43115,
          397.37668
        ]
      }
    },
    {
      "type": "Feature",
      "geometry": {
        "type": "Point",
        "coordinates": [
          -0.07758078127849188,
          51.50898607050353
        ]
      },
      "properties": {
        "name": "ALTDORF FLATS",
        "waterbody_type": "Small Marsh",
        "inkscape_coordinates": [
          424.16156,
          405.57169
        ]
      }
    },
    {
      "type": "Feature",
      "geometry": {
        "type": "Point",
        "coordinates": [
          0.5448842088763302,
          50.84151939715418
        ]
      },
      "properties": {
        "name": "REIKER MARSHES",
        "waterbody_type": "Small Marsh",
        "inkscape_coordinates": [
          459.71472,
          443.70865
        ]
      }
    },
    {
      "type": "Feature",
      "geometry": {
        "type": "Point",
        "coordinates": [
          -0.7707736827284792,
          51.541347116386696
        ]
      },
      "properties": {
        "name": "DRAKON MARSH",
        "waterbody_type": "Small Marsh",
        "inkscape_coordinates": [
          384.55838,
          403.71777
        ]
      }
    },
    {
      "type": "Feature",
      "geometry": {
        "type": "Point",
        "coordinates": [
          0.3199616949694306,
          49.518518540375446
        ]
      },
      "properties": {
        "name": "THE OBERSLECHT",
        "waterbody_type": "Small Marsh",
        "inkscape_coordinates": [
          446.84528,
          519.28998
        ]
      }
    },
    {
      "type": "Feature",
      "geometry": {
        "type": "Point",
        "coordinates": [
          1.1403281158383782,
          57.51182547043999
        ]
      },
      "properties": {
        "name": "TEUFELSUMPF",
        "waterbody_type": "Small Marsh",
        "inkscape_coordinates": [
          493.83014,
          62.638691
        ]
      }
    },
    {
      "type": "Feature",
      "geometry": {
        "type": "Point",
        "coordinates": [
          0.153150490544677,
          57.209193825515975
        ]
      },
      "properties": {
        "name": "HARGENSUMPF",
        "waterbody_type": "Small Marsh",
        "inkscape_coordinates": [
          437.42612,
          79.920715
        ]
      }
    },
    {
      "type": "Feature",
      "geometry": {
        "type": "Point",
        "coordinates": [
          -0.2828430393418033,
          49.11031132454304
        ]
      },
      "properties": {
        "name": "THE ORTSCHLAMM",
        "waterbody_type": "Small Marsh",
        "inkscape_coordinates": [
          412.39981,
          542.60638
        ]
      }
    },
    {
      "type": "Feature",
      "geometry": {
        "type": "Point",
        "coordinates": [
          0.22281938025469028,
          57.503428738684946
        ]
      },
      "properties": {
        "name": "EIGER BAY",
        "waterbody_type": "Small Sea",
        "inkscape_coordinates": [
          441.41071,
          63.11160000000007
        ]
      }
    },
    {
      "type": "Feature",
      "geometry": {
        "type": "Point",
        "coordinates": [
          1.672889026835576,
          57.673355453569464
        ]
      },
      "properties": {
        "name": "DROSSELSPULE BAY",
        "waterbody_type": "Small Sea",
        "inkscape_coordinates": [
          524.25886,
          53.41443300000003
        ]
      }
    },
    {
      "type": "Feature",
      "geometry": {
        "type": "Point",
        "coordinates": [
          2.2032073590997774,
          57.4337568592401
        ]
      },
      "properties": {
        "name": "KREIDEKLIPPE BIGHT",
        "waterbody_type": "Small Sea",
        "inkscape_coordinates": [
          554.5536599999999,
          67.10662100000002
        ]
      }
    },
    {
      "type": "Feature",
      "geometry": {
        "type": "Point",
        "coordinates": [
          -0.6997510944091809,
          57.6118708359126
        ]
      },
      "properties": {
        "name": "KLARWASSER BAY",
        "waterbody_type": "Small Sea",
        "inkscape_coordinates": [
          388.70377999999994,
          56.90947300000005
        ]
      }
    },
    {
      "type": "Feature",
      "geometry": {
        "type": "Point",
        "coordinates": [
          4.188798661131776,
          57.3518091202245
        ]
      },
      "properties": {
        "name": "STARIVODA BAY (Altwasser)",
        "waterbody_type": "Small Sea",
        "inkscape_coordinates": [
          667.9937100000001,
          71.803
        ]
      }
    },
    {
      "type": "Feature",
      "geometry": {
        "type": "Point",
        "coordinates": [
          -9.962404400481637,
          61.562847774589436
        ]
      },
      "properties": {
        "name": "TROLL FJORD",
        "waterbody_type": "Small Sea",
        "inkscape_coordinates": [
          -140.43504999999993,
          -168.87832000000003
        ]
      }
    },
    {
      "type": "Feature",
      "geometry": {
        "type": "Point",
        "coordinates": [
          -10.047954832830914,
          61.07192392357809
        ]
      },
      "properties": {
        "name": "CLAWFJORD",
        "waterbody_type": "Small Sea",
        "inkscape_coordinates": [
          -145.32983000000002,
          -140.83249
        ]
      }
    },
    {
      "type": "Feature",
      "geometry": {
        "type": "Point",
        "coordinates": [
          -10.175630551035908,
          62.34087098271469
        ]
      },
      "properties": {
        "name": "MIDFJORD",
        "waterbody_type": "Small Sea",
        "inkscape_coordinates": [
          -152.60588999999993,
          -213.32834000000003
        ]
      }
    },
    {
      "type": "Feature",
      "geometry": {
        "type": "Point",
        "coordinates": [
          -9.805255202053708,
          62.77857214824746
        ]
      },
      "properties": {
        "name": "AMFJORD",
        "waterbody_type": "Small Sea",
        "inkscape_coordinates": [
          -131.43920000000003,
          -238.33145000000002
        ]
      }
    },
    {
      "type": "Feature",
      "geometry": {
        "type": "Point",
        "coordinates": [
          -7.674256310002451,
          59.99650377910005
        ]
      },
      "properties": {
        "name": "PACK ICE BAY",
        "waterbody_type": "Small Sea",
        "inkscape_coordinates": [
          -9.730709999999931,
          -79.37619000000007
        ]
      }
    },
    {
      "type": "Feature",
      "geometry": {
        "type": "Point",
        "coordinates": [
          -5.706241253134051,
          59.55054496004949
        ]
      },
      "properties": {
        "name": "ICEDRAKE FJORD",
        "waterbody_type": "Small Sea",
        "inkscape_coordinates": [
          102.69990999999993,
          -53.884000000000015
        ]
      }
    },
    {
      "type": "Feature",
      "geometry": {
        "type": "Point",
        "coordinates": [
          0.6399597499215224,
          61.08432224463446
        ]
      },
      "properties": {
        "name": "FJAERGARDFJORD",
        "waterbody_type": "Small Sea",
        "inkscape_coordinates": [
          465.29461000000003,
          -141.46164
        ]
      }
    },
    {
      "type": "Feature",
      "geometry": {
        "type": "Point",
        "coordinates": [
          0.7997492353753133,
          61.75366698977688
        ]
      },
      "properties": {
        "name": "BAY OF BLADES",
        "waterbody_type": "Small Sea",
        "inkscape_coordinates": [
          474.43341,
          -179.70010000000002
        ]
      }
    },
    {
      "type": "Feature",
      "geometry": {
        "type": "Point",
        "coordinates": [
          2.3068751926310105,
          61.141367382747376
        ]
      },
      "properties": {
        "name": "DYPVANNFJORD",
        "waterbody_type": "Small Sea",
        "inkscape_coordinates": [
          560.5300100000001,
          -144.70828000000006
        ]
      }
    },
    {
      "type": "Feature",
      "geometry": {
        "type": "Point",
        "coordinates": [
          9.508654903239947,
          63.22814808487065
        ]
      },
      "properties": {
        "name": "DRAKFJORD",
        "waterbody_type": "Small Sea",
        "inkscape_coordinates": [
          972.01381,
          -263.87265
        ]
      }
    },
    {
      "type": "Feature",
      "geometry": {
        "type": "Point",
        "coordinates": [
          11.178751058857284,
          62.14189751935714
        ]
      },
      "properties": {
        "name": "URSFJORD",
        "waterbody_type": "Small Sea",
        "inkscape_coordinates": [
          1067.4144099999999,
          -201.80282
        ]
      }
    },
    {
      "type": "Feature",
      "geometry": {
        "type": "Point",
        "coordinates": [
          3.882250396731153,
          68.32597935610391
        ]
      },
      "properties": {
        "name": "BLOODFJORD",
        "waterbody_type": "Small Sea",
        "inkscape_coordinates": [
          650.6385100000001,
          -555.15326
        ]
      }
    },
    {
      "type": "Feature",
      "geometry": {
        "type": "Point",
        "coordinates": [
          -2.484381585273521,
          57.40616202295664
        ]
      },
      "properties": {
        "name": "BAY OF AARNAU",
        "waterbody_type": "Medium Sea",
        "inkscape_coordinates": [
          286.74091,
          68.648392
        ]
      }
    },
    {
      "type": "Feature",
      "geometry": {
        "type": "Point",
        "coordinates": [
          8.393253743681694,
          46.77138130835148
        ]
      },
      "properties": {
        "name": "VARN DRAZH\n(Black Water)",
        "waterbody_type": "Medium Sea",
        "inkscape_coordinates": [
          908.05066,
          676.29364
        ]
      }
    },
    {
      "type": "Feature",
      "geometry": {
        "type": "Point",
        "coordinates": [
          -4.73707905434827,
          40.60270430931529
        ]
      },
      "properties": {
        "name": "BAY OF PEARLS",
        "waterbody_type": "Medium Sea",
        "inkscape_coordinates": [
          157.79649,
          1028.6127
        ]
      }
    },
    {
      "type": "Feature",
      "geometry": {
        "type": "Point",
        "coordinates": [
          -3.2369537606703176,
          55.035116175246124
        ]
      },
      "properties": {
        "name": "MANANNSPOORT SEA",
        "waterbody_type": "Medium Sea",
        "inkscape_coordinates": [
          243.71053,
          204.10059
        ]
      }
    },
    {
      "type": "Feature",
      "geometry": {
        "type": "Point",
        "coordinates": [
          -9.252038345221479,
          46.67906112344019
        ]
      },
      "properties": {
        "name": "GULF OF BIDOUZE",
        "waterbody_type": "Medium Sea",
        "inkscape_coordinates": [
          -100.06534,
          681.43719
        ]
      }
    },
    {
      "type": "Feature",
      "geometry": {
        "type": "Point",
        "coordinates": [
          -5.889346066805086,
          39.08265907546938
        ]
      },
      "properties": {
        "name": "BAIA DI REMAS",
        "waterbody_type": "Medium Sea",
        "inkscape_coordinates": [
          91.942955,
          1115.4443
        ]
      }
    },
    {
      "type": "Feature",
      "geometry": {
        "type": "Point",
        "coordinates": [
          -6.702582153091006,
          36.49444084218199
        ]
      },
      "properties": {
        "name": "BAIA DI VEREZZO",
        "waterbody_type": "Medium Sea",
        "inkscape_coordinates": [
          45.443573,
          1263.3031
        ]
      }
    },
    {
      "type": "Feature",
      "geometry": {
        "type": "Point",
        "coordinates": [
          -8.702886179824617,
          50.31070518885468
        ]
      },
      "properties": {
        "name": "MOUSSILLE BAY",
        "waterbody_type": "Medium Sea",
        "inkscape_coordinates": [
          -68.63858,
          473.96555
        ]
      }
    },
    {
      "type": "Feature",
      "geometry": {
        "type": "Point",
        "coordinates": [
          -8.594926932159447,
          56.30958728866409
        ]
      },
      "properties": {
        "name": "BAY OF L'ANGUILLE",
        "waterbody_type": "Medium Sea",
        "inkscape_coordinates": [
          -62.383942,
          131.25041
        ]
      }
    },
    {
      "type": "Feature",
      "geometry": {
        "type": "Point",
        "coordinates": [
          -15.840567177704251,
          45.576152542788414
        ]
      },
      "properties": {
        "name": "BAHÍA DE MUROS",
        "waterbody_type": "Medium Sea",
        "inkscape_coordinates": [
          -476.49854,
          744.39752
        ]
      }
    },
    {
      "type": "Feature",
      "geometry": {
        "type": "Point",
        "coordinates": [
          -15.751463655060864,
          41.40038804882713
        ]
      },
      "properties": {
        "name": "GULFO NARANJA",
        "waterbody_type": "Medium Sea",
        "inkscape_coordinates": [
          -471.4682,
          982.95947
        ]
      }
    },
    {
      "type": "Feature",
      "geometry": {
        "type": "Point",
        "coordinates": [
          -10.814709938217542,
          38.579914482011915
        ]
      },
      "properties": {
        "name": "BAHÍA DE LAS ÁGUILAS",
        "waterbody_type": "Medium Sea",
        "inkscape_coordinates": [
          -189.46127,
          1144.1296
        ]
      }
    },
    {
      "type": "Feature",
      "geometry": {
        "type": "Point",
        "coordinates": [
          -5.4796625782720065,
          40.242399530195556
        ]
      },
      "properties": {
        "name": "GOLFO DI MIRAGLIANO",
        "waterbody_type": "Medium Sea",
        "inkscape_coordinates": [
          115.36584,
          1049.1914
        ]
      }
    },
    {
      "type": "Feature",
      "geometry": {
        "type": "Point",
        "coordinates": [
          -5.83446875617514,
          37.33396748997481
        ]
      },
      "properties": {
        "name": "BAIA DI OLESI",
        "waterbody_type": "Medium Sea",
        "inkscape_coordinates": [
          95.052948,
          1215.3474
        ]
      }
    },
    {
      "type": "Feature",
      "geometry": {
        "type": "Point",
        "coordinates": [
          -11.27564219404496,
          53.605835601501894
        ]
      },
      "properties": {
        "name": "LYONEN BAY",
        "waterbody_type": "Medium Sea",
        "inkscape_coordinates": [
          -215.57822,
          285.6958
        ]
      }
    },
    {
      "type": "Feature",
      "geometry": {
        "type": "Point",
        "coordinates": [
          -7.972582525156806,
          34.2477704440049
        ]
      },
      "properties": {
        "name": "PIRATE'S CURRENT",
        "waterbody_type": "Medium Sea",
        "inkscape_coordinates": [
          -27.14683,
          1391.6459
        ]
      }
    },
    {
      "type": "Feature",
      "geometry": {
        "type": "Point",
        "coordinates": [
          -7.5756363916473495,
          40.99533143115285
        ]
      },
      "properties": {
        "name": "GOLFO DI FODORE",
        "waterbody_type": "Medium Sea",
        "inkscape_coordinates": [
          -4.3709116,
          1006.1609
        ]
      }
    },
    {
      "type": "Feature",
      "geometry": {
        "type": "Point",
        "coordinates": [
          -12.67612089948549,
          41.13594870988352
        ]
      },
      "properties": {
        "name": "BAHÍA DE LA QUIETUD",
        "waterbody_type": "Medium Sea",
        "inkscape_coordinates": [
          -295.77087,
          998.08966
        ]
      }
    },
    {
      "type": "Feature",
      "geometry": {
        "type": "Point",
        "coordinates": [
          -13.208277865632898,
          47.705106971969236
        ]
      },
      "properties": {
        "name": "BAHÍA DE BILBALI",
        "waterbody_type": "Medium Sea",
        "inkscape_coordinates": [
          -326.07925,
          622.78992
        ]
      }
    },
    {
      "type": "Feature",
      "geometry": {
        "type": "Point",
        "coordinates": [
          -1.347862755132879,
          36.07048055502227
        ]
      },
      "properties": {
        "name": "LAGUNA DE LA LAGRIME",
        "waterbody_type": "Medium Sea",
        "inkscape_coordinates": [
          351.36444,
          1287.5636
        ]
      }
    },
    {
      "type": "Feature",
      "geometry": {
        "type": "Point",
        "coordinates": [
          1.2658882023651001,
          60.954188200273364
        ]
      },
      "properties": {
        "name": "GULF OF THE\nMAELSTROM",
        "waterbody_type": "Medium Sea",
        "inkscape_coordinates": [
          501.05341,
          -134.02245
        ]
      }
    },
    {
      "type": "Feature",
      "geometry": {
        "type": "Point",
        "coordinates": [
          -10.145928765972121,
          60.07320753795141
        ]
      },
      "properties": {
        "name": "BAY OF\nTAAKETSKOG",
        "waterbody_type": "Medium Sea",
        "inkscape_coordinates": [
          -150.94173,
          -83.776581
        ]
      }
    },
    {
      "type": "Feature",
      "geometry": {
        "type": "Point",
        "coordinates": [
          -0.3459181914607665,
          59.96415258276777
        ]
      },
      "properties": {
        "name": "SEA OF\nSOERLIGSLETTE",
        "waterbody_type": "Medium Sea",
        "inkscape_coordinates": [
          408.95303,
          -77.473686
        ]
      }
    },
    {
      "type": "Feature",
      "geometry": {
        "type": "Point",
        "coordinates": [
          -4.405224982430022,
          65.62130277033145
        ]
      },
      "properties": {
        "name": "VARG SEA",
        "waterbody_type": "Medium Sea",
        "inkscape_coordinates": [
          177.11758,
          -400.69656
        ]
      }
    },
    {
      "type": "Feature",
      "geometry": {
        "type": "Point",
        "coordinates": [
          0.9016929279591794,
          66.98122579898367
        ]
      },
      "properties": {
        "name": "NORDLIG SEA",
        "waterbody_type": "Medium Sea",
        "inkscape_coordinates": [
          480.33322,
          -478.34961
        ]
      }
    },
    {
      "type": "Feature",
      "geometry": {
        "type": "Point",
        "coordinates": [
          -3.9116403137850893,
          57.16438077680885
        ]
      },
      "properties": {
        "name": "SEA OF\nCOURONNE",
        "waterbody_type": "Large Sea",
        "inkscape_coordinates": [
          205.19495999999992,
          82.45077499999991
        ]
      }
    },
    {
      "type": "Feature",
      "geometry": {
        "type": "Point",
        "coordinates": [
          -11.099132585984945,
          57.44132364455316
        ]
      },
      "properties": {
        "name": "MIDDLE SEA",
        "waterbody_type": "Large Sea",
        "inkscape_coordinates": [
          -205.43840999999998,
          66.57579999999996
        ]
      }
    },
    {
      "type": "Feature",
      "geometry": {
        "type": "Point",
        "coordinates": [
          -9.781584663545374,
          48.2530873570078
        ]
      },
      "properties": {
        "name": "THE SILENT SEA",
        "waterbody_type": "Large Sea",
        "inkscape_coordinates": [
          -130.29674999999997,
          591.5091999999999
        ]
      }
    },
    {
      "type": "Feature",
      "geometry": {
        "type": "Point",
        "coordinates": [
          -1.8533131154116482,
          34.05462707500943
        ]
      },
      "properties": {
        "name": "THE BLACK GULF",
        "waterbody_type": "Large Sea",
        "inkscape_coordinates": [
          322.45781,
          1402.7255
        ]
      }
    },
    {
      "type": "Feature",
      "geometry": {
        "type": "Point",
        "coordinates": [
          -1.761601218359317,
          67.94939391258694
        ]
      },
      "properties": {
        "name": "KRAKEN SEA",
        "waterbody_type": "Large Sea",
        "inkscape_coordinates": [
          328.1873099999999,
          -533.68075
        ]
      }
    },
    {
      "type": "Feature",
      "geometry": {
        "type": "Point",
        "coordinates": [
          7.748205948299661,
          67.20397460944103
        ]
      },
      "properties": {
        "name": "THE FROZEN SEA",
        "waterbody_type": "Large Sea",
        "inkscape_coordinates": [
          871.49291,
          -491.02453
        ]
      }
    },
    {
      "type": "Feature",
      "geometry": {
        "type": "Point",
        "coordinates": [
          -2.3301228532909413,
          58.69723040214007
        ]
      },
      "properties": {
        "name": "SEA OF CLAWS",
        "waterbody_type": "Major Sea",
        "inkscape_coordinates": [
          295.57271000000003,
          -5.109160000000088
        ]
      }
    },
    {
      "type": "Feature",
      "geometry": {
        "type": "Point",
        "coordinates": [
          -7.2353134554936185,
          37.79112027734113
        ]
      },
      "properties": {
        "name": "TILEAN SEA",
        "waterbody_type": "Major Sea",
        "inkscape_coordinates": [
          15.026190000000042,
          1189.2199
        ]
      }
    },
    {
      "type": "Feature",
      "geometry": {
        "type": "Point",
        "coordinates": [
          -13.571134462560394,
          63.10472629867434
        ]
      },
      "properties": {
        "name": "SEA OF CHAOS",
        "waterbody_type": "Major Sea",
        "inkscape_coordinates": [
          -346.58752000000004,
          -256.99252
        ]
      }
    },
    {
      "type": "Feature",
      "geometry": {
        "type": "Point",
        "coordinates": [
          -17.939867443508437,
          34.07546458809466
        ]
      },
      "properties": {
        "name": "THE SOUTHERN SEA",
        "waterbody_type": "Ocean",
        "inkscape_coordinates": [
          -596.60241,
          1401.4159
        ]
      }
    },
    {
      "type": "Feature",
      "geometry": {
        "type": "Point",
        "coordinates": [
          -18.145909115239064,
          51.692696263990484
        ]
      },
      "properties": {
        "name": "THE GREAT OCEAN",
        "waterbody_type": "Ocean",
        "inkscape_coordinates": [
          -608.11945,
          394.9425
        ]
      }
    }
  ]
}